Latitude=32.870877 and Longitude=-117.21815966666666
$GPRMC,023841.00,A,3252.25250,N,11713.09073,W,0.218,,070325,,,A*68

Latitude=32.870875 and Longitude=-117.21817883333334
$GPRMC,023842.00,A,3252.25252,N,11713.09070,W,0.267,,070325,,,A*62

Latitude=32.87087533333333 and Longitude=-117.21817833333333
$GPRMC,023843.00,A,3252.25244,N,11713.09121,W,0.225,,070325,,,A*67

Latitude=32.870874 and Longitude=-117.21818683333333
$GPRMC,023844.00,A,3252.25232,N,11713.09138,W,0.340,,070325,,,A*6B

Latitude=32.870872 and Longitude=-117.21818966666666
$GPRMC,023845.00,A,3252.25225,N,11713.09176,W,0.803,,070325,,,A*6A

Latitude=32.870870833333335 and Longitude=-117.218196
$GPRMC,023846.00,A,3252.25221,N,11713.09192,W,1.478,,070325,,,A*66

Latitude=32.87087016666667 and Longitude=-117.21819866666667
$GPRMC,023847.00,A,3252.25217,N,11713.09219,W,1.516,,070325,,,A*6B

Latitude=32.8708695 and Longitude=-117.21820316666667
$GPRMC,023848.00,A,3252.25219,N,11713.09220,W,0.446,,070325,,,A*65

Latitude=32.87086983333333 and Longitude=-117.21820333333334
$GPRMC,023849.00,A,3252.25222,N,11713.09246,W,0.155,,070325,,,A*6B

Latitude=32.870870333333336 and Longitude=-117.21820766666667
$GPRMC,023850.00,A,3252.25231,N,11713.09257,W,0.156,,070325,,,A*62

Latitude=32.87087183333333 and Longitude=-117.2182095
$GPRMC,023851.00,A,3252.25231,N,11713.09292,W,1.285,,070325,,,A*66

Latitude=32.87087183333333 and Longitude=-117.21821533333333
$GPRMC,023852.00,A,3252.25236,N,11713.09306,W,1.839,,070325,,,A*63

Latitude=32.87087266666666 and Longitude=-117.21821766666666
$GPRMC,023853.00,A,3252.25234,N,11713.09333,W,0.711,,070325,,,A*62

Latitude=32.87087233333333 and Longitude=-117.21822216666666
$GPRMC,023854.00,A,3252.25238,N,11713.09345,W,0.083,,070325,,,A*64

Latitude=32.870873 and Longitude=-117.21822416666667
$GPRMC,023855.00,A,3252.25248,N,11713.09315,W,0.113,,070325,,,A*6F

Latitude=32.870874666666666 and Longitude=-117.21821916666667
$GPRMC,023856.00,A,3252.25266,N,11713.09256,W,1.155,,070325,,,A*65

Latitude=32.870877666666665 and Longitude=-117.21820933333333
$GPRMC,023857.00,A,3252.25281,N,11713.09203,W,2.058,,070325,,,A*62

Latitude=32.870880166666666 and Longitude=-117.2182005
$GPRMC,023858.00,A,3252.25284,N,11713.09161,W,1.535,,070325,,,A*62

Latitude=32.870880666666665 and Longitude=-117.2181935
$GPRMC,023859.00,A,3252.25284,N,11713.09134,W,0.379,,070325,,,A*6C

Latitude=32.870880666666665 and Longitude=-117.218189
$GPRMC,023900.00,A,3252.25288,N,11713.09099,W,0.043,,070325,,,A*61

Latitude=32.87088133333334 and Longitude=-117.21818316666666
$GPRMC,023901.00,A,3252.25296,N,11713.09049,W,0.888,,070325,,,A*6D

Latitude=32.87088266666667 and Longitude=-117.21817483333334
$GPRMC,023902.00,A,3252.25303,N,11713.08993,W,1.945,,070325,,,A*6D

Latitude=32.87088383333333 and Longitude=-117.2181655
$GPRMC,023903.00,A,3252.25303,N,11713.08975,W,1.842,,070325,,,A*62

Latitude=32.87088383333333 and Longitude=-117.2181625
$GPRMC,023904.00,A,3252.25302,N,11713.08956,W,0.461,,070325,,,A*69

Latitude=32.870883666666664 and Longitude=-117.21815933333333
$GPRMC,023905.00,A,3252.25297,N,11713.08955,W,0.145,,070325,,,A*65

Latitude=32.87088283333333 and Longitude=-117.21815916666667
$GPRMC,023906.00,A,3252.25286,N,11713.08963,W,0.323,,070325,,,A*61

Latitude=32.870881 and Longitude=-117.2181605
$GPRMC,023907.00,A,3252.25273,N,11713.08998,W,1.084,,070325,,,A*61

Latitude=32.870878833333336 and Longitude=-117.21816633333333
$GPRMC,023908.00,A,3252.25280,N,11713.08938,W,2.044,,070325,,,A*67

Latitude=32.87088 and Longitude=-117.21815633333334
$GPRMC,023909.00,A,3252.25281,N,11713.08919,W,1.110,,070325,,,A*67

Latitude=32.870880166666666 and Longitude=-117.21815316666667
$GPRMC,023910.00,A,3252.25280,N,11713.08899,W,0.422,,070325,,,A*62

Latitude=32.87088 and Longitude=-117.21814983333333
$GPRMC,023911.00,A,3252.25272,N,11713.08908,W,0.160,,070325,,,A*64

Latitude=32.87087866666667 and Longitude=-117.21815133333334
$GPRMC,023912.00,A,3252.25271,N,11713.08893,W,1.342,,070325,,,A*64

Latitude=32.8708785 and Longitude=-117.21814883333333
$GPRMC,023913.00,A,3252.25270,N,11713.08887,W,2.072,77.36,070325,,,A*49

Latitude=32.87087833333333 and Longitude=-117.21814783333333
$GPRMC,023914.00,A,3252.25271,N,11713.08867,W,1.603,,070325,,,A*69

Latitude=32.8708785 and Longitude=-117.2181445
$GPRMC,023915.00,A,3252.25272,N,11713.08866,W,0.482,,070325,,,A*60

Latitude=32.87087866666667 and Longitude=-117.21814433333333
$GPRMC,023916.00,A,3252.25272,N,11713.08859,W,0.140,,070325,,,A*64

Latitude=32.87087866666667 and Longitude=-117.21814316666666
$GPRMC,023917.00,A,3252.25267,N,11713.08878,W,1.199,,070325,,,A*67

Latitude=32.87087783333333 and Longitude=-117.21814633333334
$GPRMC,023918.00,A,3252.25262,N,11713.08901,W,2.180,78.57,070325,,,A*4A

Latitude=32.870877 and Longitude=-117.21815016666666
$GPRMC,023919.00,A,3252.25260,N,11713.08904,W,0.985,,070325,,,A*60

Latitude=32.87087666666667 and Longitude=-117.21815066666667
$GPRMC,023920.00,A,3252.25261,N,11713.08898,W,0.300,,070325,,,A*68

Latitude=32.870876833333334 and Longitude=-117.21814966666666
$GPRMC,023921.00,A,3252.25261,N,11713.08891,W,0.396,,070325,,,A*6F

Latitude=32.870876833333334 and Longitude=-117.2181485
$GPRMC,023922.00,A,3252.25252,N,11713.08935,W,1.312,,070325,,,A*6E

Latitude=32.87087533333333 and Longitude=-117.21815583333333
$GPRMC,023923.00,A,3252.25256,N,11713.08900,W,2.021,,070325,,,A*6D

Latitude=32.870876 and Longitude=-117.21815
$GPRMC,023924.00,A,3252.25257,N,11713.08880,W,1.011,,070325,,,A*62

Latitude=32.87087616666667 and Longitude=-117.21814666666667
$GPRMC,023925.00,A,3252.25256,N,11713.08895,W,0.150,,070325,,,A*63

Latitude=32.870876 and Longitude=-117.21814916666666
$GPRMC,023926.00,A,3252.25259,N,11713.08894,W,0.112,,070325,,,A*68

Latitude=32.8708765 and Longitude=-117.218149
$GPRMC,023927.00,A,3252.25256,N,11713.08908,W,0.876,,070325,,,A*69

Latitude=32.870876 and Longitude=-117.21815133333334
$GPRMC,023928.00,A,3252.25262,N,11713.08875,W,2.046,,070325,,,A*63

Latitude=32.870877 and Longitude=-117.21814583333334
$GPRMC,023929.00,A,3252.25263,N,11713.08875,W,0.873,,070325,,,A*6F

Latitude=32.870877166666666 and Longitude=-117.21814583333334
$GPRMC,023930.00,A,3252.25264,N,11713.08869,W,0.129,,070325,,,A*6B

Latitude=32.87087733333333 and Longitude=-117.21814483333333
$GPRMC,023931.00,A,3252.25268,N,11713.08863,W,0.295,,070325,,,A*68

Latitude=32.870878 and Longitude=-117.21814383333333
$GPRMC,023932.00,A,3252.25272,N,11713.08860,W,0.809,,070325,,,A*6C

Latitude=32.87087866666667 and Longitude=-117.21814333333333
$GPRMC,023933.00,A,3252.25272,N,11713.08885,W,1.446,,070325,,,A*60

Latitude=32.87087866666667 and Longitude=-117.2181475
$GPRMC,023934.00,A,3252.25280,N,11713.08869,W,1.156,,070325,,,A*6C

Latitude=32.87088 and Longitude=-117.21814483333333
$GPRMC,023935.00,A,3252.25287,N,11713.08867,W,0.259,,070325,,,A*69

Latitude=32.87088116666666 and Longitude=-117.2181445
$GPRMC,023936.00,A,3252.25291,N,11713.08858,W,0.266,,070325,,,A*6D

Latitude=32.870881833333335 and Longitude=-117.218143
$GPRMC,023937.00,A,3252.25294,N,11713.08848,W,0.341,,070325,,,A*6C

Latitude=32.870882333333334 and Longitude=-117.21814133333334
$GPRMC,023938.00,A,3252.25291,N,11713.08872,W,1.079,,070325,,,A*66

Latitude=32.870881833333335 and Longitude=-117.21814533333334
$GPRMC,023939.00,A,3252.25291,N,11713.08873,W,1.224,,070325,,,A*6C

Latitude=32.870881833333335 and Longitude=-117.2181455
$GPRMC,023940.00,A,3252.25294,N,11713.08858,W,0.087,,070325,,,A*64

Latitude=32.870882333333334 and Longitude=-117.218143
$GPRMC,023941.00,A,3252.25288,N,11713.08850,W,1.297,,070325,,,A*62

Latitude=32.87088133333334 and Longitude=-117.21814166666667
$GPRMC,023942.00,A,3252.25288,N,11713.08853,W,0.213,,070325,,,A*6F

Latitude=32.87088133333334 and Longitude=-117.21814216666667
$GPRMC,023943.00,A,3252.25294,N,11713.08849,W,1.259,,070325,,,A*67

Latitude=32.870882333333334 and Longitude=-117.2181415
$GPRMC,023944.00,A,3252.25294,N,11713.08837,W,1.104,,070325,,,A*62

Latitude=32.870882333333334 and Longitude=-117.2181395
$GPRMC,023945.00,A,3252.25296,N,11713.08839,W,0.371,,070325,,,A*6E

Latitude=32.87088266666667 and Longitude=-117.21813983333334
$GPRMC,023946.00,A,3252.25304,N,11713.08800,W,0.612,,070325,,,A*6D

Latitude=32.870884 and Longitude=-117.21813333333333
$GPRMC,023947.00,A,3252.25308,N,11713.08807,W,0.827,,070325,,,A*6F

Latitude=32.87088466666667 and Longitude=-117.2181345
$GPRMC,023948.00,A,3252.25311,N,11713.08808,W,1.884,,070325,,,A*6F

Latitude=32.87088516666667 and Longitude=-117.21813466666667
$GPRMC,023949.00,A,3252.25315,N,11713.08806,W,0.612,,070325,,,A*64

Latitude=32.87088583333333 and Longitude=-117.21813433333334
$GPRMC,023950.00,A,3252.25319,N,11713.08793,W,0.697,,070325,,,A*6E

Latitude=32.8708865 and Longitude=-117.21813216666666
$GPRMC,023951.00,A,3252.25321,N,11713.08797,W,0.063,,070325,,,A*6D

Latitude=32.87088683333333 and Longitude=-117.21813283333333
$GPRMC,023952.00,A,3252.25316,N,11713.08848,W,0.982,,070325,,,A*61

Latitude=32.870886 and Longitude=-117.21814133333334
$GPRMC,023953.00,A,3252.25316,N,11713.08829,W,1.055,,070325,,,A*65

Latitude=32.870886 and Longitude=-117.21813816666666
$GPRMC,023954.00,A,3252.25315,N,11713.08832,W,0.335,,070325,,,A*6F

Latitude=32.87088583333333 and Longitude=-117.21813866666666
$GPRMC,023955.00,A,3252.25314,N,11713.08829,W,0.816,,070325,,,A*6F

Latitude=32.870885666666666 and Longitude=-117.21813816666666
$GPRMC,023956.00,A,3252.25316,N,11713.08827,W,0.816,,070325,,,A*60

Latitude=32.870886 and Longitude=-117.21813783333333
$GPRMC,023957.00,A,3252.25310,N,11713.08861,W,1.605,83.81,070325,,,A*44

Latitude=32.870885 and Longitude=-117.2181435
$GPRMC,023958.00,A,3252.25309,N,11713.08856,W,0.194,,070325,,,A*65

Latitude=32.870884833333335 and Longitude=-117.21814266666667
$GPRMC,023959.00,A,3252.25308,N,11713.08857,W,0.946,,070325,,,A*63

Latitude=32.87088466666667 and Longitude=-117.21814283333333
$GPRMC,024000.00,A,3252.25306,N,11713.08826,W,0.486,,070325,,,A*68

Latitude=32.870884333333336 and Longitude=-117.21813766666666
$GPRMC,024001.00,A,3252.25303,N,11713.08833,W,1.789,85.02,070325,,,A*44

Latitude=32.87088383333333 and Longitude=-117.21813883333333
$GPRMC,024002.00,A,3252.25301,N,11713.08828,W,1.167,,070325,,,A*68

Latitude=32.8708835 and Longitude=-117.218138
$GPRMC,024003.00,A,3252.25298,N,11713.08852,W,0.268,,070325,,,A*68

Latitude=32.870883 and Longitude=-117.218142
$GPRMC,024004.00,A,3252.25295,N,11713.08871,W,0.220,,070325,,,A*6F

Latitude=32.8708825 and Longitude=-117.21814516666667
$GPRMC,024005.00,A,3252.25295,N,11713.08893,W,1.220,,070325,,,A*63

Latitude=32.8708825 and Longitude=-117.21814883333333
$GPRMC,024006.00,A,3252.25295,N,11713.08899,W,2.004,,070325,,,A*6D

Latitude=32.8708825 and Longitude=-117.21814983333333
